[
  {
    "id": 1,
    "name": "Красная площадь",
    "description": "Главная площадь Москвы, символ России. Здесь находятся Кремль, Собор Василия Блаженного и Мавзолей Ленина.",
    "lat": 55.7539,
    "lng": 37.6208,
    "city": "Москва"
  },
  {
    "id": 2,
    "name": "Эрмитаж",
    "description": "Один из крупнейших художественных музеев мира, расположенный в Санкт-Петербурге. Более 3 миллионов экспонатов.",
    "lat": 59.9398,
    "lng": 30.3146,
    "city": "Санкт-Петербург"
  },
  {
    "id": 3,
    "name": "Озеро Байкал",
    "description": "Самое глубокое озеро в мире, объект Всемирного наследия ЮНЕСКО. Уникальная природа и чистейшая вода.",
    "lat": 53.4125,
    "lng": 108.1681,
    "city": "Иркутская область"
  },
  {
    "id": 4,
    "name": "Кижи",
    "description": "Музей-заповедник деревянного зодчества на острове в Онежском озере. Знаменит Преображенской церковью.",
    "lat": 62.0667,
    "lng": 35.2167,
    "city": "Карелия"
  },
  {
    "id": 5,
    "name": "Долина гейзеров",
    "description": "Единственное гейзерное поле в Евразии, расположенное на Камчатке. Уникальная природная достопримечательность.",
    "lat": 54.4306,
    "lng": 160.1394,
    "city": "Камчатка"
  },
  {
    "id": 6,
    "name": "Мамаев курган",
    "description": "Мемориальный комплекс в Волгограде, посвящённый Сталинградской битве. Главный монумент — «Родина-мать зовёт!»",
    "lat": 48.7425,
    "lng": 44.537,
    "city": "Волгоград"
  },
  {
    "id": 7,
    "name": "Собор Василия Блаженного",
    "description": "Православный храм на Красной площади в Москве, один из самых узнаваемых символов России.",
    "lat": 55.7525,
    "lng": 37.6231,
    "city": "Москва"
  },
  {
    "id": 8,
    "name": "Петергоф",
    "description": "Дворцово-парковый ансамбль под Санкт-Петербургом, знаменитый своими фонтанами и парками.",
    "lat": 59.8833,
    "lng": 29.9,
    "city": "Санкт-Петербург"
  },
  {
    "id": 9,
    "name": "Кунгурская пещера",
    "description": "Одна из самых известных пещер Урала. Подземные озёра, сталактиты и сталагмиты создают фантастический пейзаж.",
    "lat": 57.4333,
    "lng": 57.0,
    "city": "Пермский край"
  },
  {
    "id": 10,
    "name": "Алтайские горы",
    "description": "Горная система на юге Сибири с уникальной природой, чистыми озёрами и богатой флорой и фауной.",
    "lat": 50.0,
    "lng": 86.0,
    "city": "Алтай"
  },
  {
    "id": 11,
    "name": "Сочи",
    "description": "Курортный город на Чёрном море, столица зимних Олимпийских игр 2014 года. Пляжи, горы и парки.",
    "lat": 43.6028,
    "lng": 39.7342,
    "city": "Краснодарский край"
  },
  {
    "id": 12,
    "name": "Калининград",
    "description": "Западный форпост России, бывший Кёнигсберг. Уникальная архитектура и история, связанная с Пруссией.",
    "lat": 54.7104,
    "lng": 20.4522,
    "city": "Калининград"
  },
  {
    "id": 13,
    "name": "Казанский Кремль",
    "description": "Историческая крепость в Казани, объект Всемирного наследия ЮНЕСКО. Симбиоз русской и татарской культур.",
    "lat": 55.7989,
    "lng": 49.1053,
    "city": "Казань"
  },
  {
    "id": 14,
    "name": "Золотое кольцо России",
    "description": "Туристический маршрут по древним городам: Сергиев Посад, Переславль-Залесский, Ростов, Ярославль и другие.",
    "lat": 57.6299,
    "lng": 39.8737,
    "city": "Ярославль"
  },
  {
    "id": 15,
    "name": "Эльбрус",
    "description": "Высочайшая вершина России и Европы (5642 м). Популярное место для альпинизма и горнолыжного спорта.",
    "lat": 43.355,
    "lng": 42.4392,
    "city": "Кабардино-Балкария"
  }
]